City_ID,City,Lat,Lng,Max Temp,Humidity,Cloudiness,Wind Speed,Country,Date
0,longyearbyen,78.2186,15.6401,10.91,82,0,1.03,SJ,1722476273
1,punta arenas,-53.15,-70.9167,4.06,93,75,7.72,CL,1722476275
2,bilibino,68.0546,166.4372,8.37,40,23,1.09,RU,1722476277
3,minas de marcona,-15.2119,-75.1103,12.85,79,9,2.22,PE,1722476279
4,strezhevoy,60.7333,77.5889,17.7,75,14,1.67,RU,1722476281
5,emerald,-23.5333,148.1667,19.63,28,0,3.29,AU,1722476283
6,bathsheba,13.2167,-59.5167,26.34,89,20,1.54,BB,1722476285
7,grytviken,-54.2811,-36.5092,-8.37,76,26,5.61,GS,1722476287
8,lekki,6.3607,4.8333,23.31,95,100,1.77,NG,1722476289
9,namibe,-15.1961,12.1522,15.49,86,21,1.02,AO,1722476291
10,westport,41.1415,-73.3579,26.84,82,75,5.14,US,1722476153
11,ribeira grande,38.5167,-28.7,21.54,86,73,1.34,PT,1722476295
12,magadan,59.5667,150.8,11.68,90,100,1.81,RU,1722476297
13,howrah,22.5892,88.3103,28.0,89,100,2.06,IN,1722476298
14,bethel,41.3712,-73.414,24.46,91,20,1.54,US,1722476129
15,necochea,-38.5473,-58.7368,10.84,85,100,4.71,AR,1722476302
16,shahpura,27.3833,75.9667,24.27,90,100,3.21,IN,1722476304
17,adamstown,-25.066,-130.1015,22.24,87,0,9.13,PN,1722476306
18,saint-pierre,-21.3393,55.4781,18.82,48,0,2.57,RE,1722476308
19,rurrenabaque,-14.4413,-67.5278,22.26,64,0,0.86,BO,1722476310
20,badger,64.8,-147.5333,17.21,54,75,4.12,US,1722476312
21,wailua homesteads,22.0669,-159.378,26.74,72,40,6.69,US,1722476314
22,puerto natales,-51.7236,-72.4875,1.47,99,100,1.89,CL,1722476036
23,stanley,54.868,-1.6985,16.51,81,100,2.07,GB,1722476318
24,margaret river,-33.95,115.0667,11.32,61,85,7.97,AU,1722476320
25,invercargill,-46.4,168.35,6.68,77,5,0.45,NZ,1722476169
26,iqaluit,63.7506,-68.5145,6.85,65,20,1.54,CA,1722476323
27,sitka,57.0531,-135.33,13.94,77,100,2.57,US,1722476325
28,cerro de ortega,18.75,-103.7667,26.34,86,100,1.48,MX,1722476327
29,happy valley-goose bay,53.3168,-60.3315,17.17,82,40,6.17,CA,1722476329
30,timmins,48.4669,-81.3331,21.9,78,20,1.03,CA,1722476282
31,praia da vitoria,38.7333,-27.0667,22.64,88,20,3.2,PT,1722476333
32,wangjing,24.6,94.0333,24.99,90,87,1.06,IN,1722476335
33,yellowknife,62.456,-114.3525,14.29,72,75,5.14,CA,1722476337
34,kuta,-8.7233,115.1723,28.97,84,20,2.57,ID,1722476339
35,tiksi,71.6872,128.8694,3.87,71,76,3.58,RU,1722476341
36,monteagudo,-19.8167,-63.9833,13.61,80,12,0.79,BO,1722476343
37,blackmans bay,-43.0167,147.3167,10.96,78,96,1.34,AU,1722476344
38,zhengjiatun,43.5064,123.5064,27.82,72,85,3.84,CN,1722476346
39,mount gambier,-37.8333,140.7667,13.47,55,88,3.1,AU,1722476348
40,bredasdorp,-34.5322,20.0403,6.29,83,0,2.25,ZA,1722476350
41,nuku'alofa,-21.1333,-175.2,26.19,65,20,3.09,TO,1722476352
42,port-aux-francais,-49.35,70.2167,4.49,96,100,14.4,TF,1722476354
43,port augusta,-32.5,137.7667,16.03,22,23,4.13,AU,1722476356
44,waitangi,-43.9535,-176.5597,9.9,90,81,1.34,NZ,1722476358
45,pisco,-13.7,-76.2167,16.12,88,0,4.12,PE,1722476362
46,edinburgh of the seven seas,-37.0676,-12.3116,11.84,61,40,10.55,SH,1722476165
47,tromso,69.6496,18.957,16.01,67,1,2.06,NO,1722476366
48,hamilton,39.1834,-84.5333,25.14,88,20,2.06,US,1722475768
49,remire-montjoly,4.9167,-52.2667,25.02,94,0,1.54,GF,1722476370
50,isafjordur,66.0755,-23.124,7.39,93,100,3.46,IS,1722476374
51,fort st. john,56.2499,-120.8529,19.94,49,75,6.69,CA,1722476376
52,ushuaia,-54.8,-68.3,3.81,75,100,1.03,AR,1722476135
53,panacan,9.2463,118.4082,29.43,70,99,1.07,PH,1722476379
54,sikasso,10.9167,-7.0,23.31,94,100,2.11,ML,1722476381
55,college,64.8569,-147.8028,17.26,53,75,4.12,US,1722476383
56,crane,31.3974,-102.3501,33.11,30,1,8.78,US,1722476385
57,angra do heroismo,38.65,-27.2167,22.84,84,20,0.45,PT,1722476387
58,khandyga,62.6667,135.6,10.01,71,94,2.25,RU,1722476389
59,danielskuil,-28.1887,23.5395,7.29,50,0,4.22,ZA,1722476391
60,hawaiian paradise park,19.5933,-154.9731,27.73,70,0,4.63,US,1722476393
61,utrik,11.2278,169.8474,28.33,79,14,6.16,MH,1722476395
62,lompoc,34.6391,-120.4579,19.96,83,75,3.6,US,1722476397
63,phan rang-thap cham,11.5667,108.9833,32.38,52,10,1.28,VN,1722476399
64,hard bargain,26.3167,-77.5667,29.3,74,100,6.03,BS,1722476400
65,whitehorse,60.7161,-135.0538,13.43,75,75,4.12,CA,1722476402
66,teshi old town,5.5836,-0.1072,24.31,94,100,6.69,GH,1722476404
67,olonkinbyen,70.9221,-8.7187,4.97,97,100,5.11,SJ,1722476406
68,alesund,62.4723,6.1549,13.08,78,100,3.6,NO,1722476408
69,khoyniki,51.8911,29.9552,12.86,81,100,2.35,BY,1722476410
70,beau vallon,-20.4189,57.6953,18.45,88,20,2.57,MU,1722476412
71,ilulissat,69.2167,-51.1,6.01,75,40,1.03,GL,1722476414
72,banda aceh,5.5577,95.3222,29.17,61,100,1.19,ID,1722476416
73,waddan,29.1614,16.139,25.63,52,0,0.04,LY,1722476418
74,ixtapa-zihuatanejo,17.6333,-101.55,30.05,66,75,0.0,MX,1722476420
75,west island,-12.1568,96.8225,25.99,73,75,7.72,CC,1722476422
76,papatowai,-46.5619,169.4708,8.39,64,21,1.19,NZ,1722476426
77,laojunmiao,39.8333,97.7333,18.54,48,100,2.02,CN,1722476428
78,west bay,19.3667,-81.4167,30.04,81,20,4.12,KY,1722476430
79,kingston,17.997,-76.7936,30.53,70,20,6.17,JM,1722476308
80,abakaliki,6.3163,8.1169,22.64,98,99,2.62,NG,1722476434
81,ashland,40.8167,-82.2665,26.14,88,78,2.64,US,1722476436
82,carnarvon,-24.8667,113.6333,20.04,71,0,8.79,AU,1722476438
83,puerto ayora,-0.7393,-90.3518,20.3,91,31,3.86,EC,1722476439
84,thompson,55.7435,-97.8558,26.09,41,20,2.06,CA,1722476441
85,salmon arm,50.6998,-119.3024,34.68,54,0,2.06,CA,1722476443
86,rehoboth,-23.3167,17.0833,3.8,31,0,1.57,NA,1722476445
87,kolondieba,11.0882,-6.8926,23.22,93,100,1.86,ML,1722476447
88,avarua,-21.2078,-159.775,23.03,56,100,3.6,CK,1722476449
89,ar ruways,24.1103,52.7306,33.09,77,97,2.92,AE,1722476451
90,lebu,-37.6167,-73.65,11.8,95,100,12.74,CL,1722476453
91,saipan,15.1355,145.701,32.39,70,20,5.14,MP,1722476455
92,chonchi,-42.6128,-73.8092,8.95,93,100,4.09,CL,1722476457
93,sisimiut,66.9395,-53.6735,6.98,69,0,4.13,GL,1722476459
94,hernando,28.5419,-82.4582,29.79,84,0,1.54,US,1722476461
95,yemva,62.59,50.8594,15.78,85,100,1.52,RU,1722476463
96,yacimiento rio turbio,-51.5732,-72.3508,-1.76,99,100,1.23,AR,1722476464
97,cabo san lucas,22.8909,-109.9124,30.61,67,20,2.06,MX,1722476466
98,lihue,21.9789,-159.3672,26.77,74,40,6.69,US,1722476468
99,uturoa,-16.7333,-151.4333,23.74,55,56,6.55,PF,1722476472
100,port alfred,-33.5906,26.891,11.47,73,3,5.34,ZA,1722476474
101,kashiwazaki,37.3667,138.55,29.93,67,100,2.7,JP,1722476476
102,ankazoabo,-22.2833,44.5167,12.73,74,0,3.56,MG,1722476478
103,albany,42.6001,-73.9662,23.71,74,3,3.3,US,1722476462
104,vilyuysk,63.7553,121.6247,14.44,43,95,2.47,RU,1722476482
105,qaqortoq,60.7167,-46.0333,6.64,72,10,2.75,GL,1722476486
106,fortaleza,-3.7227,-38.5247,27.34,89,20,2.57,BR,1722476275
107,mulki,13.1,74.8,23.6,100,100,1.54,IN,1722476489
108,vilyuchinsk,52.9306,158.4028,16.15,97,100,1.76,RU,1722476491
109,derbent,42.0678,48.2899,24.5,55,44,2.03,RU,1722476493
110,anadyr,64.75,177.4833,11.28,100,75,5.0,RU,1722476495
111,port elizabeth,-33.918,25.5701,10.16,92,0,3.6,ZA,1722476497
112,udachny,66.4167,112.4,11.74,47,98,3.01,RU,1722476499
113,arraial do cabo,-22.9661,-42.0278,18.98,100,100,1.54,BR,1722476171
114,wynyard,-41.0,145.7167,10.28,70,100,3.57,AU,1722476505
115,nejo,9.5,35.5,13.48,99,100,0.71,ET,1722476507
116,drayton valley,53.2168,-114.9854,16.31,81,8,4.22,CA,1722476508
117,hermanus,-34.4187,19.2345,5.45,78,0,2.79,ZA,1722476510
118,bonthe,7.5264,-12.505,24.66,89,97,4.97,SL,1722476512
119,talcahuano,-36.7167,-73.1167,11.82,94,100,15.95,CL,1722476514
120,undurkhaan,47.3194,110.6556,21.4,70,61,4.54,MN,1722476516
121,komsomol'skiy,43.9783,46.6985,24.52,44,63,3.45,RU,1722476518
122,maumere,-8.6199,122.2111,27.95,67,72,0.81,ID,1722476520
123,yemetsk,63.4721,41.7941,15.27,81,100,0.81,RU,1722476522
124,toliara,-23.35,43.6667,16.34,78,0,4.61,MG,1722476524
125,ust-nera,64.5667,143.2,4.56,96,100,3.17,RU,1722476526
126,east london,-33.0153,27.9116,11.98,51,0,3.75,ZA,1722476528
127,bansoa,5.4472,10.3151,15.91,96,98,1.94,CM,1722476531
128,alice springs,-23.7,133.8833,15.75,25,0,4.12,AU,1722476533
129,hilo,19.7297,-155.09,27.85,72,0,4.63,US,1722476253
130,mayya,61.7333,130.2811,14.62,36,20,3.99,RU,1722476537
131,argostolion,38.1811,20.489,26.53,31,0,1.46,GR,1722476540
132,gulf breeze,30.3571,-87.1639,30.53,85,0,2.57,US,1722476542
133,saint croix,17.7397,-64.7388,25.25,94,75,3.09,VI,1722476544
134,itoigawa,37.0333,137.85,29.45,71,100,2.51,JP,1722476546
135,new mirpur,33.1418,73.7674,29.04,73,17,4.26,PK,1722476548
136,iskateley,67.6803,53.1512,17.29,85,100,3.49,RU,1722476550
137,saudarkrokur,65.7461,-19.6394,10.79,83,100,1.76,IS,1722476552
138,antsohihy,-14.8796,47.9875,17.38,76,0,2.37,MG,1722476554
139,yeniseysk,58.4497,92.1703,20.58,63,17,1.76,RU,1722476556
140,juneau,58.3019,-134.4197,12.0,94,100,2.57,US,1722476558
141,san francisco tepeolulco,19.8337,-99.9852,12.07,92,100,2.21,MX,1722476560
142,imbituba,-28.24,-48.6703,18.81,93,86,5.88,BR,1722476562
143,vila velha,-20.3297,-40.2925,20.53,95,75,2.68,BR,1722476563
144,tura,25.5198,90.2201,27.26,82,28,1.39,IN,1722476565
145,al hazm,16.1641,44.7769,26.81,48,100,7.38,YE,1722476567
146,okhotsk,59.3833,143.3,11.58,90,100,1.85,RU,1722476569
147,nar'yan-mar,67.6713,53.087,17.3,85,100,3.54,RU,1722476571
148,keflavik,64.0049,-22.5624,10.24,87,75,3.6,IS,1722476573
149,tezu,27.9167,96.1667,30.57,63,29,1.06,IN,1722476575
150,san antonio de pale,-1.4014,5.6325,22.43,77,79,4.51,GQ,1722476579
151,ar rutbah,33.0381,40.2848,27.01,38,0,3.74,IQ,1722476581
152,aioi,34.8036,134.4681,31.86,71,4,0.89,JP,1722476583
153,coahuayana de hidalgo,18.7,-103.6583,25.78,89,100,1.49,MX,1722476585
154,vadso,70.0744,29.7487,13.09,82,75,9.26,NO,1722476587
155,klaksvik,62.2266,-6.589,10.51,92,93,5.2,FO,1722476589
156,lamar,33.6668,-95.5836,30.55,69,0,4.04,US,1722476590
157,colonia,50.9333,6.95,19.9,89,0,3.6,DE,1722476457
158,mogocha,53.7333,119.7667,20.58,37,2,1.87,RU,1722476594
159,aykhal,66.0,111.5,11.09,51,6,2.98,RU,1722476596
160,andilamena,-17.0167,48.5833,11.96,90,53,2.42,MG,1722476598
161,ke-macina,13.9623,-5.3572,26.7,79,100,6.64,ML,1722476600
162,p'ot'i,42.1462,41.672,19.98,85,9,2.81,GE,1722476602
163,taro,-8.3862,115.28,24.0,59,8,0.58,ID,1722476604
164,kavaratti,10.5669,72.642,26.87,87,100,5.98,IN,1722476606
165,komsomolets,53.7453,62.0708,18.57,75,100,1.97,KZ,1722476608
166,murzuq,25.9155,13.9184,27.97,31,91,5.18,LY,1722476610
167,bandarbeyla,9.4942,50.8122,25.27,74,53,12.25,SO,1722476612
168,ustyuzhna,58.8394,36.4321,11.66,98,57,1.99,RU,1722476613
169,belyy yar,53.6039,91.3903,18.94,82,0,2.0,RU,1722476615
170,tomohon,1.3346,124.8392,26.52,53,36,1.4,ID,1722476617
171,georgetown,5.4112,100.3354,29.96,78,20,2.57,MY,1722476388
172,tazovsky,67.4667,78.7,15.22,85,97,5.0,RU,1722476621
173,muroran,42.3172,140.9881,21.94,84,100,0.76,JP,1722476623
174,yinchuan,38.4681,106.2731,30.57,28,12,2.99,CN,1722476625
175,kegen,43.0197,79.2203,18.27,50,0,2.31,KZ,1722476627
176,port moresby,-9.4431,147.1797,29.68,66,40,5.14,PG,1722476629
177,hays,30.0502,-98.0336,30.51,68,0,2.68,US,1722476631
178,gangapur,26.4833,76.7167,26.31,82,100,1.34,IN,1722476633
179,yuzhno-kurilsk,44.0306,145.8556,18.11,86,64,3.21,RU,1722476635
180,poronaysk,49.2167,143.1167,15.29,92,99,4.14,RU,1722476637
181,whitefish,48.4111,-114.3376,28.86,38,0,3.09,US,1722476638
182,pasni,25.2631,63.471,27.92,91,58,6.39,PK,1722476640
183,horta,38.5333,-28.6333,21.12,86,79,2.24,PT,1722476642
184,xunchang,28.4543,104.715,29.27,69,0,0.45,CN,1722476644
185,fredericksburg,38.3032,-77.4605,28.54,75,0,0.0,US,1722476560
186,kruisfontein,-34.0033,24.7314,7.08,68,0,2.73,ZA,1722476648
187,tyup,42.7276,78.3648,20.97,51,0,0.57,KG,1722476650
188,seaside,36.6111,-121.8516,18.84,89,0,4.12,US,1722476575
189,tofol,5.3248,163.0078,27.87,74,100,2.43,FM,1722476654
190,port blair,11.6667,92.75,28.02,89,75,3.6,IN,1722476656
191,susuman,62.7833,148.1667,2.74,94,100,2.19,RU,1722476660
192,whakatane,-37.9585,176.9854,11.1,76,100,4.98,NZ,1722476661
193,gadzhiyevo,69.2551,33.3362,9.81,92,99,7.13,RU,1722476663
194,bargaal,11.2864,51.0773,28.87,58,59,10.54,SO,1722476665
195,dampit,-8.2116,112.7493,27.23,71,36,1.7,ID,1722476667
196,zeya,53.75,127.2667,21.91,41,0,5.13,RU,1722476669
197,twentynine palms,34.1356,-116.0542,38.37,16,0,3.76,US,1722476390
198,la ronge,55.1001,-105.2842,28.14,30,40,3.09,CA,1722476673
199,tsiombe,-25.3,45.4833,15.17,85,6,1.35,MG,1722476675
200,vydrino,51.485,104.8461,15.1,100,100,2.48,RU,1722476677
201,sinabang,2.4803,96.3801,28.32,78,100,1.08,ID,1722476679
202,bazarnyye mataki,54.8833,49.9333,14.65,88,24,3.04,RU,1722476681
203,petropavlovsk-kamchatsky,53.0452,158.6483,15.33,100,75,3.0,RU,1722476685
204,camana,-16.6228,-72.7111,16.21,84,29,2.49,PE,1722476687
205,greenville,35.6127,-77.3663,28.01,90,0,0.45,US,1722476402
206,oranjemund,-28.55,16.4333,10.81,72,0,3.58,NA,1722476690
207,mar del plata,-38.0023,-57.5575,12.01,90,0,9.39,AR,1722476405
208,neiafu,-18.65,-173.9833,26.38,57,40,3.6,TO,1722476694
209,kuchen,48.6358,9.7999,19.5,95,100,0.82,DE,1722476696
210,papao,-17.75,-149.55,24.82,59,51,7.36,PF,1722476698
211,vendas novas,38.6771,-8.4579,19.37,97,7,2.2,PT,1722476700
212,nova vicosa,-17.8919,-39.3719,22.35,88,24,5.18,BR,1722476702
213,santa ana,33.7456,-117.8678,31.82,53,20,3.6,US,1722476652
214,tshabong,-26.05,22.45,13.02,45,20,6.5,BW,1722476706
215,dudinka,69.4058,86.1778,22.79,44,82,2.53,RU,1722476708
216,berezovyy,51.6667,135.7,19.38,88,100,2.09,RU,1722476710
217,newman,37.3138,-121.0208,36.13,38,73,2.68,US,1722476712
218,geraldton,-28.7667,114.6,17.23,55,81,6.17,AU,1722476714
219,thal,35.4791,72.2439,19.28,71,29,0.93,PK,1722476716
220,buhe,30.2876,112.2298,26.31,90,100,5.13,CN,1722476718
221,talnakh,69.4865,88.3972,22.64,40,100,0.74,RU,1722476720
222,port-vila,-17.7338,168.3219,25.78,73,75,4.12,VU,1722476721
223,axim,4.8699,-2.2405,23.49,91,100,5.05,GH,1722476723
224,chop,48.432,22.2055,16.45,51,73,3.17,UA,1722476725
225,wewak,-3.5534,143.6268,29.25,73,76,3.66,PG,1722476727
226,apac,1.9756,32.5386,17.81,97,99,1.9,UG,1722476729
227,touros,-5.1989,-35.4608,23.78,86,39,6.36,BR,1722476731
228,kone,-21.0595,164.8658,23.58,56,100,3.77,NC,1722476733
229,callao,-12.0667,-77.15,17.62,77,100,6.17,PE,1722476735
230,kenai,60.5544,-151.2583,21.68,37,0,4.63,US,1722476737
231,port hedland,-20.3167,118.5667,25.03,22,100,5.66,AU,1722476738
232,griffith,41.5284,-87.4237,28.3,79,0,2.57,US,1722476740
233,alo,6.5486,4.2686,23.8,91,100,3.76,NG,1722476742
234,orkney,-26.9802,26.6727,11.68,66,98,3.86,ZA,1722476744
235,brignoles,43.4,6.0667,22.01,63,0,1.76,FR,1722476746
236,shilovo,54.3204,40.874,12.33,98,24,3.62,RU,1722476748
237,saldanha,-33.0117,17.9442,6.03,85,0,4.74,ZA,1722476750
238,holualoa,19.6228,-155.9522,25.31,71,53,0.45,US,1722476752
239,miracema do tocantins,-9.5618,-48.3967,25.53,34,10,1.38,BR,1722476754
240,broome,42.2506,-75.833,23.07,82,0,0.45,US,1722476755
241,parun,35.4207,70.9221,14.13,50,0,5.42,AF,1722476759
242,antsiranana,-12.2787,49.2917,21.39,72,2,6.67,MG,1722476761
243,atafu village,-8.5421,-172.5159,27.63,74,100,9.85,TK,1722476763
244,birao,10.2849,22.7882,21.26,97,42,1.67,CF,1722476765
245,north platte,41.1239,-100.7654,30.94,42,0,3.13,US,1722476496
246,porto novo,6.4965,2.6036,24.9,88,100,4.44,BJ,1722476771
247,chos malal,-37.3781,-70.2709,9.89,57,100,8.04,AR,1722476773
248,vorgashor,67.5833,63.95,17.32,85,100,2.23,RU,1722476775
249,santana,-0.0583,-51.1817,26.1,94,0,1.54,BR,1722476777
250,la passe,45.5549,-0.8967,23.13,96,25,3.39,FR,1722476778
251,ursulo galvan,22.7333,-98.3,29.07,86,0,3.36,MX,1722476780
252,santa maria,-29.6842,-53.8069,14.61,100,0,1.54,BR,1722476782
253,hammerfest,70.6634,23.6821,11.25,93,7,3.09,NO,1722476785
254,luderitz,-26.6481,15.1594,14.06,45,0,5.29,NA,1722476787
255,wangqing,43.3218,129.7634,29.87,65,68,4.15,CN,1722476789
256,bilqas,31.2145,31.358,22.4,94,0,2.13,EG,1722476791
257,rahimah,26.7079,50.0619,30.12,60,99,4.51,SA,1722476792
258,quibdo,5.6947,-76.6611,24.27,96,94,0.58,CO,1722476796
259,chita,52.0333,113.55,19.94,56,98,1.0,RU,1722476705
260,deir ez-zor,35.3359,40.1408,29.85,40,0,5.47,SY,1722476800
261,north lakhimpur,27.2333,94.1167,25.05,94,100,5.14,IN,1722476802
262,miedzyrzecz,52.4446,15.578,19.31,65,100,2.31,PL,1722476804
263,prince rupert,54.3161,-130.3201,15.05,88,100,2.57,CA,1722476806
264,afaahiti,-17.75,-149.2833,23.93,59,48,7.25,PF,1722476810
265,wad az zaki,14.4619,32.2065,26.02,67,37,6.24,SD,1722476812
266,port mathurin,-19.6833,63.4167,22.72,79,98,6.48,MU,1722476814
267,ancud,-41.8697,-73.8203,9.42,92,100,7.28,CL,1722476816
268,valsad,20.6333,72.9333,26.67,92,100,6.61,IN,1722476818
269,cedeira,43.6797,-8.0209,18.87,51,98,3.3,ES,1722476819
270,constantia,44.1833,28.65,18.38,72,0,3.83,RO,1722476821
271,umm ruwaba,12.9061,31.2158,24.15,74,97,3.23,SD,1722476823
272,eregli,37.5133,34.0467,18.84,45,0,1.1,TR,1722476825
273,antofagasta,-23.65,-70.4,14.6,88,19,1.38,CL,1722476724
274,argo,37.6333,22.7333,23.21,39,0,1.69,GR,1722476829
275,brisas de zicatela,15.8369,-97.0419,30.29,74,100,1.54,MX,1722476831
276,alaghsas,17.0187,8.0168,29.07,56,17,7.06,NE,1722476833
277,kourou,5.1552,-52.6478,25.03,84,0,2.41,GF,1722476835
278,fale old settlement,-9.3852,-171.2468,27.15,70,100,8.86,TK,1722476837
279,iquique,-20.2208,-70.1431,16.02,78,62,0.28,CL,1722476539
280,mosjoen,65.836,13.1908,12.29,71,75,0.0,NO,1722476840
281,sekong,-6.3996,106.0252,29.93,59,32,0.54,ID,1722476842
282,tres arroyos,-38.3739,-60.2798,11.71,78,100,5.71,AR,1722476844
283,weno,7.4515,151.8468,31.97,74,20,1.54,FM,1722476846
284,atherton,53.5237,-2.4935,19.08,88,100,0.89,GB,1722476848
285,magistral'nyy,56.1725,107.4458,17.77,55,100,1.41,RU,1722476850
286,san patricio,28.017,-97.5169,29.92,71,0,6.28,US,1722476852
287,ghat,24.9647,10.1728,27.96,23,1,1.63,LY,1722476854
288,flin flon,54.7682,-101.865,23.48,47,72,3.64,CA,1722476662
289,shancheng,34.7953,116.0817,27.13,91,100,4.45,CN,1722476857
290,portland,45.5234,-122.6762,30.99,48,20,4.12,US,1722476605
291,santa maria da boa vista,-8.8078,-39.8256,22.8,58,0,6.48,BR,1722476861
292,jumla,29.2747,82.1838,17.89,84,100,1.01,NP,1722476863
293,warrnambool,-38.3833,142.4833,12.04,55,95,3.24,AU,1722476865
294,queenstown,-31.8976,26.8753,1.71,46,0,1.36,ZA,1722476867
295,cedar city,37.6775,-113.0619,32.54,9,0,5.14,US,1722476869
296,fisterra,42.9049,-9.2629,18.9,95,99,4.09,ES,1722476871
297,kapuskasing,49.4169,-82.4331,26.05,78,20,2.06,CA,1722476873
298,mount pearl,47.5166,-52.7813,19.98,90,20,7.72,CA,1722476875
299,nueva esperanza,15.2667,-87.6,25.79,99,99,0.45,HN,1722476877
300,camden,39.7835,-74.9663,28.13,87,51,0.45,US,1722476879
301,crucecita,-28.95,-58.9833,19.82,76,4,5.11,AR,1722476881
302,carmel hamlet,41.4148,-73.6852,23.96,78,20,1.54,US,1722476883
303,okondja,-0.6549,13.6753,21.37,70,39,0.98,GA,1722476885
304,amahai,-3.3333,128.9167,26.12,84,82,4.73,ID,1722476886
305,mankapur,27.0333,82.2333,30.33,69,68,1.57,IN,1722476888
306,greymouth,-42.4667,171.2,9.44,60,9,4.41,NZ,1722476890
307,fort dodge,42.4975,-94.168,27.22,82,100,0.89,US,1722476892
308,taoudenni,22.6783,-3.9836,34.58,10,0,9.14,ML,1722476895
309,quellon,-43.1167,-73.6167,9.5,92,100,9.4,CL,1722476899
310,cape town,-33.9258,18.4232,11.17,80,0,3.6,ZA,1722476794
311,illapel,-31.6308,-71.1653,14.39,56,100,1.46,CL,1722476903
312,klyuchi,52.2667,79.1667,25.59,50,8,2.17,RU,1722476905
313,karaton,-6.3424,106.1045,29.74,56,23,0.21,ID,1722476907
314,pingliang,35.5392,106.6861,26.37,54,9,1.36,CN,1722476908
315,kavieng,-2.5744,150.7967,29.39,69,50,4.02,PG,1722476910
316,palmas,-10.2128,-48.3603,24.93,57,0,2.57,BR,1722476673
317,haiku-pauwela,20.9219,-156.3051,28.98,65,40,10.8,US,1722476914
318,novyy buh,47.6931,32.5216,15.96,58,0,1.94,UA,1722476916
319,south lake tahoe,38.9332,-119.9844,30.41,30,0,0.45,US,1722476918
320,arteche,12.2645,125.4048,30.77,64,100,0.91,PH,1722476920
321,ephrata,40.1798,-76.1788,27.19,73,65,1.96,US,1722476922
322,florence,43.7667,11.25,25.85,82,0,2.57,IT,1722476300
323,acapulco de juarez,16.8634,-99.8901,29.9,74,100,2.57,MX,1722476765
324,belel,7.05,14.4333,16.37,99,100,2.68,CM,1722476928
325,kaplice,48.7385,14.4963,21.65,93,100,0.99,CZ,1722476929
326,noumea,-22.2763,166.4572,21.67,99,100,3.08,NC,1722476931
327,sarykemer,43.0,71.5,22.71,32,0,1.11,KZ,1722476933
328,preobrazheniye,42.9019,133.9064,25.5,81,77,2.58,RU,1722476935
329,dunedin,-45.8742,170.5036,8.22,67,60,1.34,NZ,1722476861
330,ellsworth,44.5434,-68.4195,21.18,95,100,5.66,US,1722476939
331,rio grande,-32.035,-52.0986,14.41,87,100,4.41,BR,1722476403
332,revda,56.801,59.9303,14.68,94,43,3.32,RU,1722476943
333,nagqu,31.5,92.0,8.81,47,7,1.68,CN,1722476945
334,galveston,29.3669,-94.9669,30.05,83,40,4.63,US,1722476856
335,sao joao da barra,-21.6403,-41.0511,21.7,70,34,5.54,BR,1722476948
336,severomorsk,69.0689,33.4162,11.22,90,99,6.78,RU,1722476950
337,ziri,46.0422,14.1072,19.64,81,6,0.71,SI,1722476952
338,laguna,38.421,-121.4238,36.8,32,0,4.63,US,1722476954
339,slavske,48.8473,23.4459,13.15,59,78,2.26,UA,1722476956
340,kailua-kona,19.6406,-155.9956,27.38,75,48,0.89,US,1722476958
341,ha tinh,18.3333,105.9,27.98,68,100,5.3,VN,1722476960
342,codrington,-38.2667,141.9667,12.73,59,43,2.78,AU,1722476962
343,cill airne,52.05,-9.5167,12.8,98,17,1.05,IE,1722476964
344,hulan,45.9833,126.6,24.06,85,89,1.48,CN,1722476966
345,takoradi,4.8845,-1.7554,23.43,92,100,5.16,GH,1722476967
346,kurchatov,51.6601,35.6521,14.23,92,62,2.77,RU,1722476752
347,port lincoln,-34.7333,135.8667,13.92,42,3,6.08,AU,1722476971
348,urangan,-25.3,152.9,18.12,47,1,4.74,AU,1722476973
349,grand rapids,42.9634,-85.6681,24.78,87,0,1.82,US,1722476760
350,lauro de freitas,-12.8944,-38.3272,25.01,65,40,4.63,BR,1722476404
351,puerto baquerizo moreno,-0.9,-89.6,19.76,91,10,5.19,EC,1722476831
352,lodwar,3.1191,35.5973,25.45,64,98,4.1,KE,1722476981
353,nemuro,43.3236,145.575,16.21,95,100,3.98,JP,1722476983
354,joshimath,30.5667,79.5667,18.23,98,100,0.65,IN,1722476985
355,novovarshavka,54.1721,74.6946,23.24,70,98,3.1,RU,1722476986
356,mili,6.0815,171.735,28.84,75,88,4.55,MH,1722476988
357,jamestown,42.097,-79.2353,23.8,88,0,1.54,US,1722476795
358,baikunthpur,23.25,82.55,24.45,89,100,2.05,IN,1722476992
359,abra pampa,-22.7205,-65.697,7.38,8,0,2.32,AR,1722476994
360,bengkulu,-3.8004,102.2655,26.19,78,98,1.27,ID,1722476996
361,kazanskoye,55.6448,69.235,20.19,84,85,2.57,RU,1722476998
362,macas,-2.3167,-78.1167,18.99,90,67,1.37,EC,1722477000
363,dryden,49.7833,-92.7503,22.16,68,20,2.06,CA,1722477002
364,kill devil hills,36.0307,-75.676,28.32,87,0,5.66,US,1722477004
365,adrar,20.5022,-10.0711,34.79,25,8,4.28,MR,1722477006
366,podporozh'ye,60.9112,34.1706,13.19,98,100,1.21,RU,1722477008
367,el alto,-4.2714,-81.2147,16.81,84,4,6.16,PE,1722477010
368,lerwick,60.1545,-1.1494,12.0,82,90,1.5,GB,1722477012
369,kodiak,57.79,-152.4072,20.73,37,0,4.12,US,1722477014
370,pizarro,4.9533,-77.366,26.04,86,48,2.65,CO,1722477016
371,vila franca do campo,37.7167,-25.4333,21.23,87,39,1.8,PT,1722477018
372,mount isa,-20.7333,139.5,22.87,33,0,4.12,AU,1722477020
373,flying fish cove,-10.4217,105.6791,25.82,78,75,5.14,CX,1722477022
374,g'azalkent,41.5581,69.7708,31.01,22,0,1.42,UZ,1722477024
375,enewetak,11.3474,162.3373,28.93,75,75,5.97,MH,1722477026
376,malvan,16.0667,73.4667,26.66,86,100,7.35,IN,1722477028
377,san rafael del sur,11.8485,-86.4384,25.54,78,100,2.83,NI,1722477030
378,lac-brome,45.2168,-72.5158,23.33,96,100,1.44,CA,1722477031
379,aasiaat,68.7098,-52.8699,1.05,93,47,0.83,GL,1722477033
380,marakkanam,12.2,79.95,27.47,67,100,5.95,IN,1722477035
381,port huron,42.9709,-82.4249,26.12,86,10,1.23,US,1722476984
382,morehead city,34.7229,-76.726,28.0,88,20,6.17,US,1722476859
383,mysen,59.5535,11.3258,12.02,93,15,1.05,NO,1722477041
384,puerto madero,14.7208,-92.4215,28.93,73,35,0.74,MX,1722477043
385,grand island,40.925,-98.342,23.16,78,83,1.46,US,1722476645
386,yermentau,51.6214,73.1069,24.44,52,28,3.89,KZ,1722477047
387,spas-demensk,54.4122,34.0226,11.54,93,97,3.17,RU,1722477049
388,pemangkat,1.1667,108.9667,28.45,76,19,0.83,ID,1722477050
389,al burayqah,30.4062,19.5739,27.38,70,0,6.66,LY,1722477052
390,lazaro cardenas,17.9583,-102.2,27.71,80,100,0.85,MX,1722476927
391,ust'-kulom,61.6864,53.6902,14.64,96,82,0.83,RU,1722477060
392,tamiahua,21.2667,-97.45,26.69,90,6,3.49,MX,1722477062
393,braslaw,55.644,27.0455,11.31,98,69,3.04,BY,1722477064
394,buka,40.8108,69.1986,29.78,21,6,1.72,UZ,1722477066
395,hilzingen,47.7667,8.7833,19.42,85,79,1.09,DE,1722477068
396,brooks,50.5834,-111.8851,30.99,31,0,2.57,CA,1722477070
397,plastun,44.7561,136.2939,20.11,98,100,0.38,RU,1722477072
398,miles city,46.4083,-105.8406,31.54,23,40,4.12,US,1722476885
399,suksun,57.1431,57.3949,13.9,95,61,5.19,RU,1722477075
400,al kharijah,25.4514,30.5464,29.85,24,98,2.1,EG,1722477077
401,coeur d'alene,47.6777,-116.7805,31.49,29,0,3.09,US,1722476797
402,gordes,38.9328,28.2894,17.87,65,0,3.49,TR,1722477081
403,igarka,67.4667,86.5833,19.9,59,13,7.07,RU,1722477083
404,lakshmeshwar,15.1333,75.4667,22.07,95,100,5.29,IN,1722477085
405,mikuni,36.2171,136.1519,27.95,68,49,1.98,JP,1722477087
406,puerto armuelles,8.2833,-82.8667,26.99,95,100,2.24,PA,1722477089
407,margate,51.3813,1.3862,19.39,84,81,5.69,GB,1722477092
408,hamina,60.5697,27.1979,15.6,91,100,4.96,FI,1722477094
409,igoumenitsa,39.5039,20.2656,26.69,51,0,2.33,GR,1722477096
410,tazacorte,28.629,-17.9293,22.54,88,0,7.2,ES,1722477098
411,ponta delgada,37.7333,-25.6667,21.4,83,20,3.09,PT,1722477100
412,hotan,37.0997,79.9269,30.6,24,100,3.77,CN,1722477102
413,tomatlan,19.9333,-105.25,24.2,97,100,3.11,MX,1722477104
414,ulanhot,46.0833,122.0833,22.0,81,100,7.16,CN,1722477106
415,hutchinson island south,27.2995,-80.2205,29.01,90,0,0.45,US,1722477107
416,mesolongi,38.3702,21.4295,24.4,64,0,1.79,GR,1722477109
417,saint-joseph,-21.3667,55.6167,19.21,68,0,1.85,RE,1722477111
418,maysville,38.6412,-83.7444,21.89,94,0,2.06,US,1722476978
419,auki,-8.7676,160.7034,29.71,65,73,1.78,SB,1722477115
420,naro moru,-0.1676,37.0213,10.81,93,21,3.01,KE,1722477117
421,upata,8.0086,-62.3989,24.0,90,18,1.67,VE,1722477119
422,mudgee,-32.5943,149.5871,11.46,49,4,2.54,AU,1722477121
423,kapa'a,22.0752,-159.319,27.18,72,40,6.69,US,1722477123
424,penzance,50.1186,-5.5371,17.38,93,37,4.49,GB,1722477125
425,vernon,50.2581,-119.2691,32.64,35,0,0.51,CA,1722476879
426,arkhangel'sk,64.5401,40.5433,14.06,100,100,2.0,RU,1722477128
427,blackwater,-23.5833,148.8833,20.35,27,0,3.88,AU,1722477130
428,coquimbo,-29.9533,-71.3436,12.85,86,100,2.06,CL,1722477132
429,daru,-9.0763,143.2092,24.99,91,78,8.84,PG,1722477134
430,mejit,10.2753,170.8646,28.41,78,25,5.67,MH,1722477136
431,hithadhoo,-0.6,73.0833,28.79,76,82,4.74,MV,1722477138
432,kalevala,65.2,31.1667,12.72,99,100,1.78,RU,1722477140
433,fiambala,-27.6871,-67.6149,15.12,26,61,1.71,AR,1722477142
434,sidney,-33.8679,151.2073,15.69,71,78,2.24,AU,1722476847
435,jutai,-5.1833,-68.9,27.77,57,96,0.97,BR,1722477145
436,hongjiang,27.11,109.9956,27.37,89,82,1.95,CN,1722477147
437,polyarnyy,69.1989,33.4478,9.68,92,99,7.06,RU,1722477149
438,sainte-adresse,49.5089,0.0845,21.24,94,0,3.09,FR,1722477151
439,grand falls-windsor,48.9332,-55.6649,20.84,90,0,3.94,CA,1722477093
440,ridgecrest,35.6225,-117.6709,38.71,5,0,4.92,US,1722477094
441,kogalym,62.2654,74.4791,17.73,70,16,2.33,RU,1722477157
442,richards bay,-28.783,32.0377,14.02,93,0,2.15,ZA,1722477159
443,punta del este,-34.9667,-54.95,16.06,82,0,3.6,UY,1722477161
444,ocean shores,46.9737,-124.1563,21.0,83,0,5.14,US,1722477143
445,manokwari,-0.8667,134.0833,28.5,68,100,2.8,ID,1722477166
446,at tall al kabir,30.5445,31.7853,25.49,69,0,1.5,EG,1722477168
447,sankt wendel,49.4667,7.1667,20.54,89,75,2.09,DE,1722477170
448,ojinaga,29.5667,-104.4167,31.53,37,40,8.23,MX,1722477172
449,berriane,32.8265,3.7669,30.45,20,0,3.34,DZ,1722477174
450,kingman,35.1894,-114.053,37.88,21,0,3.6,US,1722477098
451,fuglafjordur,62.244,-6.814,10.26,91,98,3.28,FO,1722477178
452,opuwo,-18.0607,13.84,13.37,25,40,0.56,NA,1722477180
453,mariental,-24.6333,17.9667,6.62,28,0,2.94,NA,1722477181
454,pechora,65.1472,57.2244,16.87,65,100,2.33,RU,1722477183
455,likasi,-10.9814,26.7333,12.57,33,6,1.37,CD,1722477185
456,ca mau,9.1769,105.15,30.18,68,100,2.25,VN,1722477187
457,guankou,28.15,113.6333,30.89,63,93,3.54,CN,1722477189
458,midvagur,62.0511,-7.1939,10.46,100,100,3.6,FO,1722477191
459,miri,4.4148,114.0089,33.08,79,20,1.54,MY,1722477195
460,nova sintra,14.8667,-24.7167,24.86,84,100,6.7,CV,1722477197
461,pangody,65.85,74.4859,20.53,63,26,2.18,RU,1722477198
462,turkmenbasy,40.0222,52.9552,24.43,88,75,6.17,TM,1722477200
463,illela,13.7292,5.2975,27.5,66,93,3.24,NG,1722477202
464,nabire,-3.3667,135.4833,28.24,68,93,0.6,ID,1722477204
465,batticaloa,7.7102,81.6924,27.7,70,100,2.02,LK,1722477206
466,delice,39.9537,34.0259,18.78,80,0,2.78,TR,1722477208
467,marathon,44.9,-89.7668,25.86,89,1,2.45,US,1722477210
468,bamyan,34.75,67.25,13.24,47,0,2.39,AF,1722477212
469,kronenwetter,44.8222,-89.5904,24.82,88,0,2.95,US,1722477213
470,libenge,3.65,18.6333,22.9,73,98,0.95,CD,1722477215
471,katsuren-haebaru,26.3369,127.8719,32.21,73,40,4.63,JP,1722477217
472,jaca,42.569,-0.5499,21.1,44,0,1.66,ES,1722477219
473,vyksa,55.3175,42.1744,12.64,99,99,2.9,RU,1722477221
474,karaidel',55.8337,56.9069,13.28,96,89,1.9,RU,1722477223
475,winnemucca,40.973,-117.7357,36.03,10,0,3.09,US,1722477225
476,nantucket,41.2835,-70.0995,24.44,94,100,5.66,US,1722477226
477,severo-yeniseyskiy,60.3725,93.0408,16.4,87,63,1.19,RU,1722477228
478,prineville,44.2999,-120.8345,33.6,22,0,5.14,US,1722477230
479,el bauga,18.262,33.9081,28.83,60,100,3.88,SD,1722477232
480,vorkuta,67.5,64.0,17.63,86,100,2.08,RU,1722477234
481,tralee,52.2704,-9.7026,13.06,99,48,1.42,IE,1722477238
482,kamina,-8.7386,24.9906,16.78,25,0,1.85,CD,1722477240
483,nikolayevsk-on-amure,53.1406,140.73,22.61,66,100,0.91,RU,1722477242
484,khorixas,-20.3667,14.9667,10.25,44,0,0.75,NA,1722477243
485,peterborough,52.5736,-0.2478,17.95,72,75,2.57,GB,1722477245
486,ouani,-12.1322,44.4258,24.22,71,7,4.27,KM,1722477247
487,huarmey,-10.0681,-78.1522,17.58,85,0,3.68,PE,1722476951
488,usinsk,65.9939,57.5281,16.73,71,18,3.13,RU,1722477251
489,carutapera,-1.195,-46.02,25.55,83,6,2.68,BR,1722477253
490,beitbridge,-22.2167,30.0,15.41,85,38,8.54,ZW,1722477255
491,cacapava do sul,-30.5122,-53.4914,13.31,94,100,1.74,BR,1722477257
492,ujae,8.9322,165.7642,28.72,78,13,6.69,MH,1722477259
493,al qitena,14.8648,32.3668,26.34,67,74,6.65,SD,1722477261
494,nouadhibou,20.931,-17.0347,20.99,88,1,8.23,MR,1722477263
495,murun-kuren,49.6342,100.1625,17.51,71,100,3.78,MN,1722477265
496,moose jaw,50.4001,-105.5344,30.14,28,74,5.14,CA,1722477266
497,chernyshevskiy,63.0128,112.4714,15.01,45,0,2.09,RU,1722477268
498,nyaunglebin,17.95,96.7333,24.47,95,100,1.99,MM,1722477270
499,villa gesell,-37.2639,-56.973,11.29,86,100,5.44,AR,1722477272
500,la'ie,21.6477,-157.9253,30.98,70,9,2.68,US,1722477274
501,lobito,-12.3481,13.5456,19.56,86,51,3.11,AO,1722477276
502,n'zeto,-7.2312,12.8666,19.44,89,79,2.9,AO,1722477280
503,namtsy,62.7161,129.6658,14.55,35,47,4.28,RU,1722477282
504,carloforte,39.145,8.3058,25.22,62,0,3.12,IT,1722477283
505,sur,22.5667,59.5289,30.08,64,93,3.57,OM,1722477285
506,gombi,10.1614,12.7399,21.06,96,100,0.66,NG,1722477287
507,brokopondo,4.75,-55.1667,25.5,83,17,3.98,SR,1722477289
508,sao felix do xingu,-6.6447,-51.995,25.49,39,56,0.5,BR,1722477291
509,naryn,41.4287,75.9911,18.96,43,0,0.94,KG,1722477293
510,plettenberg bay,-34.0527,23.3716,9.98,59,0,1.97,ZA,1722477295
511,vangaindrano,-23.35,47.6,18.15,86,73,1.95,MG,1722477297
512,askiz,53.1319,90.5264,20.32,71,5,1.7,RU,1722477300
513,leksand,60.7339,15.0032,10.25,81,16,1.98,SE,1722477302
514,st. john's,47.5649,-52.7093,20.44,90,20,7.72,CA,1722477277
515,hakkari,37.5833,44.1667,7.88,76,20,1.03,TR,1722477306
516,tianpeng,30.9866,103.9393,27.26,72,99,0.86,CN,1722477308
517,laishevo,55.4046,49.5504,17.12,88,44,3.74,RU,1722477310
518,nago,26.5881,127.9761,32.24,69,20,3.11,JP,1722477312
519,boa vista,2.8197,-60.6733,26.99,78,0,1.54,BR,1722477170
520,seven pagodas,12.6264,80.1722,30.07,74,100,2.91,IN,1722477316
521,ciudad victoria,23.7333,-99.1333,27.49,69,0,3.6,MX,1722477317
522,kurumkan,54.3,110.3,25.48,47,100,0.92,RU,1722477319
523,santa cruz,-17.8,-63.1667,22.7,73,0,6.17,BO,1722477043
524,khovd,48.0056,91.6419,21.47,35,0,0.5,MN,1722477323
525,broken hill,-31.95,141.4333,13.93,33,0,4.3,AU,1722477323
526,nyurba,63.2842,118.3319,15.02,45,52,2.72,RU,1722477327
527,bikenibeu village,1.3673,173.1241,30.98,70,20,3.6,KI,1722477329
528,choma,-16.8065,26.9531,15.36,40,0,3.89,ZM,1722477330
529,mymensingh,24.75,90.4,25.8,92,100,4.15,BD,1722477332
530,jeddah,21.5169,39.2192,33.92,55,0,1.03,SA,1722477334
531,bracebridge heath,53.1945,-0.5336,17.4,86,98,3.09,GB,1722477336
532,ginir,7.1333,40.7,14.84,73,9,4.51,ET,1722477338
533,acarau,-2.8856,-40.12,25.68,86,27,7.57,BR,1722477342
534,korla,41.7597,86.1469,29.45,31,78,4.31,CN,1722477344
535,toma,12.7667,-2.8833,25.19,78,100,2.04,BF,1722477346
536,kegeyli shahar,42.7767,59.6078,22.05,34,0,1.84,UZ,1722477348
537,labrador city,52.9463,-66.9114,18.99,87,100,4.92,CA,1722477349
538,ciudad bolivar,8.1222,-63.5497,26.5,72,3,2.01,VE,1722477351
539,sovetsk,55.0839,21.8785,13.2,94,3,3.39,RU,1722477353
540,sassandra,4.95,-6.0833,22.94,94,100,3.99,CI,1722477355
541,scottburgh,-30.2867,30.7532,12.29,72,0,3.08,ZA,1722477357
542,gizo,-8.103,156.8419,27.82,76,32,3.78,SB,1722477359
543,ailuk,10.2197,169.9797,28.06,80,13,5.41,MH,1722477361
544,aginskoye,51.1,114.53,22.83,38,78,5.54,RU,1722477363
545,nampula,-15.1165,39.2666,17.97,94,20,2.24,MZ,1722477364
546,ilomantsi,62.6716,30.9328,15.39,98,100,1.97,FI,1722477366
547,victoria falls,-17.9235,25.843,14.66,36,0,2.55,ZW,1722477101
548,ibotirama,-12.1853,-43.2206,24.13,41,57,2.85,BR,1722477370
549,viedma,-40.8135,-62.9967,10.6,65,100,5.92,AR,1722477057
550,cooma,-36.2333,149.1333,6.02,53,15,2.07,AU,1722477374
551,dapa,9.7594,126.0531,28.1,76,100,2.15,PH,1722477376
552,palmer,42.1584,-72.3287,23.88,82,100,2.57,US,1722477377
553,new norfolk,-42.7826,147.0587,11.07,61,84,1.38,AU,1722477379
554,yarmouth,41.7057,-70.2286,24.49,94,100,5.14,US,1722477383
555,kanbe,16.7053,96.0017,26.03,82,100,3.22,MM,1722477385
556,pointe-noire,-4.7761,11.8635,21.04,94,75,3.6,CG,1722477387
557,mae hong son,19.3003,97.9685,24.08,94,75,0.0,TH,1722477389
558,novoorsk,51.381,58.9813,19.36,71,100,1.96,RU,1722477391
559,vologda,59.2187,39.8886,14.29,95,100,2.17,RU,1722477393
560,san juan,-31.5375,-68.5364,13.53,31,100,2.09,AR,1722477181
561,barki saria,24.1667,85.8833,29.26,71,51,2.11,IN,1722477397
562,plouzane,48.3833,-4.6167,17.03,94,4,2.57,FR,1722477399
563,bamboo flat,11.7,92.7167,28.05,89,75,3.6,IN,1722477401
564,sanchi,23.4833,77.7333,24.96,91,100,4.52,IN,1722477403
565,arzgir,45.3728,44.2206,20.43,52,3,3.92,RU,1722477405
566,salinopolis,-0.6136,-47.3561,26.72,78,4,4.76,BR,1722477407
567,olyokminsk,60.3736,120.4264,15.24,41,100,1.24,RU,1722477408
568,kununurra,-15.7667,128.7333,27.99,20,100,6.69,AU,1722477283
